header:
  stamp:
    sec: 106
    nanosec: 979000000
  frame_id: map
pose:
  position:
    x: 0.01906806230545044
    y: -0.005747754126787186
    z: 0.0028464794158935547
  orientation:
    x: -0.0009512602118775249
    y: 0.00019845261704176664
    z: 0.0007391254184767604
    w: 0.9999992251396179
---
header:
  stamp:
    sec: 106
    nanosec: 995000000
  frame_id: map
pose:
  position:
    x: 0.02117908000946045
    y: -0.0021102100145071745
    z: 0.000561833381652832
  orientation:
    x: -0.0009596174350008368
    y: -0.00046874882536940277
    z: -0.00021620074403472245
    w: 0.9999994039535522
---
header:
  stamp:
    sec: 107
    nanosec: 30000000
  frame_id: map
pose:
  position:
    x: 0.02102482318878174
    y: -0.003572380170226097
    z: -0.001750946044921875
  orientation:
    x: -0.001155323232524097
    y: -0.0020512279588729143
    z: -0.0004241191199980676
    w: 0.9999971389770508
---
header:
  stamp:
    sec: 107
    nanosec: 45000000
  frame_id: map
pose:
  position:
    x: 0.015537261962890625
    y: -0.0006524351192638278
    z: -0.0013655424118041992
  orientation:
    x: -0.00019817239081021398
    y: -0.0013771969825029373
    z: -0.0005904604913666844
    w: 0.9999988675117493
---
header:
  stamp:
    sec: 107
    nanosec: 63000000
  frame_id: map
pose:
  position:
    x: 0.015679597854614258
    y: 0.0006768599268980324
    z: -0.001011967658996582
  orientation:
    x: -0.00036616250872612
    y: -0.0013377191498875618
    z: -0.001135101541876793
    w: 0.9999983906745911
---
header:
  stamp:
    sec: 107
    nanosec: 79000000
  frame_id: map
pose:
  position:
    x: 0.01745063066482544
    y: -0.00011636182898655534
    z: -0.0016952753067016602
  orientation:
    x: -0.0002667238295543939
    y: -0.0016588398721069098
    z: -0.000773242674767971
    w: 0.9999982714653015
---
header:
  stamp:
    sec: 107
    nanosec: 95000000
  frame_id: map
pose:
  position:
    x: 0.01769965887069702
    y: -0.0007328003994189203
    z: -0.0013829469680786133
  orientation:
    x: -7.569975423393771e-05
    y: -0.0016285906312987208
    z: -0.0005889153108000755
    w: 0.9999985098838806
---
header:
  stamp:
    sec: 107
    nanosec: 112000000
  frame_id: map
pose:
  position:
    x: 0.01787745952606201
    y: -0.0003212960436940193
    z: -0.0007179975509643555
  orientation:
    x: 0.0004141951212659478
    y: -0.001275933114811778
    z: -0.0003977729065809399
    w: 0.9999989867210388
---
header:
  stamp:
    sec: 107
    nanosec: 129000000
  frame_id: map
pose:
  position:
    x: 0.019522905349731445
    y: 0.0004251939826644957
    z: -0.002373218536376953
  orientation:
    x: -4.5574477553600445e-05
    y: -0.002203988144174218
    z: -0.0009258931968361139
    w: 0.9999971389770508
---
header:
  stamp:
    sec: 107
    nanosec: 145000000
  frame_id: map
pose:
  position:
    x: 0.020409882068634033
    y: 0.0004373728297650814
    z: -0.0021300315856933594
  orientation:
    x: 6.9914196501486e-05
    y: -0.002068799687549472
    z: -0.0007487841648980975
    w: 0.9999975562095642
---
header:
  stamp:
    sec: 107
    nanosec: 162000000
  frame_id: map
pose:
  position:
    x: 0.020577311515808105
    y: 0.0003152540884912014
    z: -0.002156972885131836
  orientation:
    x: 0.0001712226658128202
    y: -0.0021968521177768707
    z: -0.0006466889753937721
    w: 0.9999973773956299
---
header:
  stamp:
    sec: 107
    nanosec: 179000000
  frame_id: map
pose:
  position:
    x: 0.022628366947174072
    y: -0.0010616746731102467
    z: -0.003380298614501953
  orientation:
    x: -0.00010914989979937673
    y: -0.003006517654284835
    z: -0.0005651924293488264
    w: 0.9999952912330627
---
header:
  stamp:
    sec: 107
    nanosec: 195000000
  frame_id: map
pose:
  position:
    x: 0.021889567375183105
    y: 0.0005013548070564866
    z: -0.003149747848510742
  orientation:
    x: 0.00019327148038428277
    y: -0.0026371944695711136
    z: -0.0007268994813784957
    w: 0.9999962449073792
---
header:
  stamp:
    sec: 107
    nanosec: 230000000
  frame_id: map
pose:
  position:
    x: 0.025669515132904053
    y: -0.0010330087970942259
    z: -0.005827069282531738
  orientation:
    x: -0.0005543868755921721
    y: -0.004455602262169123
    z: -0.0011442342074587941
    w: 0.9999892711639404
---
header:
  stamp:
    sec: 107
    nanosec: 245000000
  frame_id: map
pose:
  position:
    x: 0.026523172855377197
    y: 1.48635299410671e-05
    z: -0.006595253944396973
  orientation:
    x: -0.0011077234521508217
    y: -0.00481948908418417
    z: -0.001685079070739448
    w: 0.9999863505363464
---
header:
  stamp:
    sec: 107
    nanosec: 262000000
  frame_id: map
pose:
  position:
    x: 0.02613353729248047
    y: 0.0002667902153916657
    z: -0.005691051483154297
  orientation:
    x: -0.0007785754860378802
    y: -0.004432732705026865
    z: -0.0014665140770375729
    w: 0.9999887943267822
---
header:
  stamp:
    sec: 107
    nanosec: 279000000
  frame_id: map
pose:
  position:
    x: 0.02550715208053589
    y: 0.0007983600371517241
    z: -0.005048155784606934
  orientation:
    x: -0.0007027085521258414
    y: -0.004092866089195013
    z: -0.0015938210999593139
    w: 0.9999901056289673
---
header:
  stamp:
    sec: 107
    nanosec: 295000000
  frame_id: map
pose:
  position:
    x: 0.026535511016845703
    y: 0.0016311118379235268
    z: -0.004593014717102051
  orientation:
    x: -0.0007177589577622712
    y: -0.003753814147785306
    z: -0.0017570707714185119
    w: 0.9999911189079285
---
header:
  stamp:
    sec: 107
    nanosec: 313000000
  frame_id: map
pose:
  position:
    x: 0.028761744499206543
    y: 0.0011231161188334227
    z: -0.005384206771850586
  orientation:
    x: -0.0007188947638496757
    y: -0.004030949901789427
    z: -0.001469655311666429
    w: 0.9999905228614807
---
header:
  stamp:
    sec: 107
    nanosec: 329000000
  frame_id: map
pose:
  position:
    x: 0.02791041135787964
    y: 0.0024274885654449463
    z: -0.0050688982009887695
  orientation:
    x: -0.0009272320894524455
    y: -0.0039994725957512856
    z: -0.0021642756182700396
    w: 0.9999892115592957
---
header:
  stamp:
    sec: 107
    nanosec: 345000000
  frame_id: map
pose:
  position:
    x: 0.0223391056060791
    y: 0.0032154854852706194
    z: -0.0008301734924316406
  orientation:
    x: 0.00021308028954081237
    y: -0.0015760284150019288
    z: -0.0014403171371668577
    w: 0.9999976754188538
---
header:
  stamp:
    sec: 107
    nanosec: 362000000
  frame_id: map
pose:
  position:
    x: 0.02214992046356201
    y: 0.00434474740177393
    z: -0.0007363557815551758
  orientation:
    x: 0.00041828889516182244
    y: -0.0015294677577912807
    z: -0.0016962098889052868
    w: 0.9999973177909851
---
header:
  stamp:
    sec: 107
    nanosec: 379000000
  frame_id: map
pose:
  position:
    x: 0.02248591184616089
    y: 0.0033577573485672474
    z: -0.0011734962463378906
  orientation:
    x: 8.367845293832943e-05
    y: -0.0017033630283549428
    z: -0.0015452982624992728
    w: 0.9999973177909851
---
header:
  stamp:
    sec: 107
    nanosec: 395000000
  frame_id: map
pose:
  position:
    x: 0.021993577480316162
    y: 0.004974497016519308
    z: -0.0004183053970336914
  orientation:
    x: 0.00045286453678272665
    y: -0.0013259322149679065
    z: -0.0017246253555640578
    w: 0.9999974966049194
---
header:
  stamp:
    sec: 107
    nanosec: 412000000
  frame_id: map
pose:
  position:
    x: 0.022720932960510254
    y: 0.004910869058221579
    z: -0.0002582073211669922
  orientation:
    x: 0.00013930920977145433
    y: -0.001194483833387494
    z: -0.0020516684744507074
    w: 0.9999971389770508
---
header:
  stamp:
    sec: 107
    nanosec: 429000000
  frame_id: map
pose:
  position:
    x: 0.023267388343811035
    y: 0.004008801653981209
    z: -0.0007426738739013672
  orientation:
    x: 0.00022374140098690987
    y: -0.0015202128561213613
    z: -0.0016615514177829027
    w: 0.9999974370002747
---
header:
  stamp:
    sec: 107
    nanosec: 445000000
  frame_id: map
pose:
  position:
    x: 0.02449023723602295
    y: 0.004361368715763092
    z: -0.0011962652206420898
  orientation:
    x: 0.00010367185313953087
    y: -0.0016432513948529959
    z: -0.00175805005710572
    w: 0.999997079372406
---
header:
  stamp:
    sec: 107
    nanosec: 462000000
  frame_id: map
pose:
  position:
    x: 0.024224698543548584
    y: 0.003886466845870018
    z: -0.0009965896606445312
  orientation:
    x: -0.00013261503772810102
    y: -0.001511021750047803
    z: -0.0017873551696538925
    w: 0.9999972581863403
---
header:
  stamp:
    sec: 107
    nanosec: 495000000
  frame_id: map
pose:
  position:
    x: 0.024064600467681885
    y: 0.0032475278712809086
    z: -0.0015866756439208984
  orientation:
    x: -0.0002925902954302728
    y: -0.001770309405401349
    z: -0.0019246420124545693
    w: 0.999996542930603
---
header:
  stamp:
    sec: 107
    nanosec: 512000000
  frame_id: map
pose:
  position:
    x: 0.025918662548065186
    y: 0.0043107992969453335
    z: -0.0027008056640625
  orientation:
    x: -4.550686935544945e-05
    y: -0.002404163358733058
    z: -0.0021827854216098785
    w: 0.999994695186615
---
header:
  stamp:
    sec: 107
    nanosec: 529000000
  frame_id: map
pose:
  position:
    x: 0.02486729621887207
    y: 0.0045277331955730915
    z: -0.0019843578338623047
  orientation:
    x: 8.018120570341125e-05
    y: -0.0019871287513524294
    z: -0.0020858694333583117
    w: 0.9999958276748657
---
header:
  stamp:
    sec: 107
    nanosec: 545000000
  frame_id: map
pose:
  position:
    x: 0.025390923023223877
    y: 0.005461510736495256
    z: -0.0014891624450683594
  orientation:
    x: -2.034001772699412e-05
    y: -0.0016520367935299873
    z: -0.0024927137419581413
    w: 0.9999955296516418
---
header:
  stamp:
    sec: 107
    nanosec: 562000000
  frame_id: map
pose:
  position:
    x: 0.024788856506347656
    y: 0.004746619611978531
    z: -0.0007430315017700195
  orientation:
    x: -2.236746331618633e-05
    y: -0.001310116844251752
    z: -0.0023174136877059937
    w: 0.9999964237213135
---
header:
  stamp:
    sec: 107
    nanosec: 579000000
  frame_id: map
pose:
  position:
    x: 0.024633288383483887
    y: 0.004833262413740158
    z: -0.00040149688720703125
  orientation:
    x: 0.0001375738938804716
    y: -0.0010878756875172257
    z: -0.0023109600879251957
    w: 0.9999967217445374
---
header:
  stamp:
    sec: 107
    nanosec: 595000000
  frame_id: map
pose:
  position:
    x: 0.02537304162979126
    y: 0.0035507488064467907
    z: -0.0007075071334838867
  orientation:
    x: 6.503635086119175e-05
    y: -0.0012020037975162268
    z: -0.0017387713305652142
    w: 0.9999977350234985
---
header:
  stamp:
    sec: 107
    nanosec: 612000000
  frame_id: map
pose:
  position:
    x: 0.024782657623291016
    y: 0.003594073234125972
    z: 0.000377655029296875
  orientation:
    x: 0.00022479044855572283
    y: -0.0005587094346992671
    z: -0.0015354782808572054
    w: 0.9999986290931702
---
header:
  stamp:
    sec: 107
    nanosec: 629000000
  frame_id: map
pose:
  position:
    x: 0.024569451808929443
    y: 0.0039216866716742516
    z: 0.0005521774291992188
  orientation:
    x: 0.00012784742284566164
    y: -0.0004186738806311041
    z: -0.001881660195067525
    w: 0.999998152256012
---
header:
  stamp:
    sec: 107
    nanosec: 646000000
  frame_id: map
pose:
  position:
    x: 0.02533745765686035
    y: 0.00424574688076973
    z: -9.751319885253906e-05
  orientation:
    x: 0.000174551154486835
    y: -0.0008434166084043682
    z: -0.0020012797322124243
    w: 0.999997615814209
---
header:
  stamp:
    sec: 107
    nanosec: 662000000
  frame_id: map
pose:
  position:
    x: 0.024905800819396973
    y: 0.0034460651222616434
    z: 0.0004888772964477539
  orientation:
    x: 4.698239717981778e-05
    y: -0.0005211623501963913
    z: -0.0017829613061621785
    w: 0.9999982714653015
---
header:
  stamp:
    sec: 107
    nanosec: 680000000
  frame_id: map
pose:
  position:
    x: 0.02456653118133545
    y: 0.004026622045785189
    z: 0.001412510871887207
  orientation:
    x: 0.00041858997428789735
    y: -6.6847336711362e-05
    z: -0.0017692260444164276
    w: 0.9999983310699463
---
header:
  stamp:
    sec: 107
    nanosec: 695000000
  frame_id: map
pose:
  position:
    x: 0.02485102415084839
    y: 0.0032337517477571964
    z: 0.0012536048889160156
  orientation:
    x: 0.0004158445808570832
    y: -0.00014395042671822011
    z: -0.0014774678274989128
    w: 0.9999988079071045
---
header:
  stamp:
    sec: 107
    nanosec: 729000000
  frame_id: map
pose:
  position:
    x: 0.02640324831008911
    y: 0.004805413074791431
    z: -7.617473602294922e-05
  orientation:
    x: 0.0005430796300061047
    y: -0.0008219432202167809
    z: -0.001998304622247815
    w: 0.9999974966049194
---
header:
  stamp:
    sec: 107
    nanosec: 745000000
  frame_id: map
pose:
  position:
    x: 0.02647346258163452
    y: 0.0042916228994727135
    z: 0.00020956993103027344
  orientation:
    x: -5.505798981175758e-05
    y: -0.0007005140651017427
    z: -0.0022697499953210354
    w: 0.9999971389770508
---
header:
  stamp:
    sec: 107
    nanosec: 747000000
  frame_id: map
pose:
  position:
    x: 0.02671349048614502
    y: 0.00468045100569725
    z: -2.288818359375e-05
  orientation:
    x: 0.0001499009958934039
    y: -0.000611276482231915
    z: -0.002138195326551795
    w: 0.9999974966049194
---
header:
  stamp:
    sec: 107
    nanosec: 770000000
  frame_id: map
pose:
  position:
    x: 0.02800595760345459
    y: 0.003599052783101797
    z: -0.0008873939514160156
  orientation:
    x: -0.0003466028720140457
    y: -0.0010790026281028986
    z: -0.0022395059932023287
    w: 0.9999968409538269
---
header:
  stamp:
    sec: 107
    nanosec: 782000000
  frame_id: map
pose:
  position:
    x: 0.02800452709197998
    y: 0.004207616206258535
    z: -0.0005615949630737305
  orientation:
    x: -0.00014795859169680625
    y: -0.0008665021159686148
    z: -0.002191621344536543
    w: 0.9999971985816956
---
header:
  stamp:
    sec: 107
    nanosec: 798000000
  frame_id: map
pose:
  position:
    x: 0.024075031280517578
    y: 0.005275669973343611
    z: 0.0003254413604736328
  orientation:
    x: 0.00026964087737724185
    y: -0.00030300169601105154
    z: -0.0023758173920214176
    w: 0.999997079372406
---
header:
  stamp:
    sec: 107
    nanosec: 815000000
  frame_id: map
pose:
  position:
    x: 0.024051904678344727
    y: 0.004386484622955322
    z: 0.0002454519271850586
  orientation:
    x: -0.00017473651678301394
    y: -0.0003510346286930144
    z: -0.0024117412976920605
    w: 0.9999970197677612
---
header:
  stamp:
    sec: 107
    nanosec: 835000000
  frame_id: map
pose:
  position:
    x: 0.025253713130950928
    y: 0.0060861906968057156
    z: -0.0004863739013671875
  orientation:
    x: 0.00019910682749468833
    y: -0.0007733468664810061
    z: -0.0028731690254062414
    w: 0.9999955296516418
---
header:
  stamp:
    sec: 107
    nanosec: 864000000
  frame_id: map
pose:
  position:
    x: 0.025014400482177734
    y: 0.005088405683636665
    z: 0.00027430057525634766
  orientation:
    x: 0.00010212779307039455
    y: -0.0002753719163592905
    z: -0.0023785613011568785
    w: 0.9999971389770508
---
header:
  stamp:
    sec: 107
    nanosec: 881000000
  frame_id: map
pose:
  position:
    x: 0.026218712329864502
    y: 0.005538655444979668
    z: -0.0004572868347167969
  orientation:
    x: 0.00030749078723601997
    y: -0.000844870344735682
    z: -0.0025575326289981604
    w: 0.9999963045120239
---
header:
  stamp:
    sec: 107
    nanosec: 903000000
  frame_id: map
pose:
  position:
    x: 0.024829566478729248
    y: 0.004799189046025276
    z: 0.0002765655517578125
  orientation:
    x: -1.6189136658795178e-05
    y: -0.00045944194425828755
    z: -0.0025553780142217875
    w: 0.9999966025352478
---
header:
  stamp:
    sec: 107
    nanosec: 915000000
  frame_id: map
pose:
  position:
    x: 0.024925172328948975
    y: 0.00545684527605772
    z: 0.000644683837890625
  orientation:
    x: 0.00011911364708794281
    y: -0.0002966297324746847
    z: -0.0027416793163865805
    w: 0.9999961853027344
---
header:
  stamp:
    sec: 107
    nanosec: 932000000
  frame_id: map
pose:
  position:
    x: 0.025040090084075928
    y: 0.005384077318012714
    z: 0.0007700920104980469
  orientation:
    x: -0.00011771066056098789
    y: -0.00023525992583017796
    z: -0.002861118409782648
    w: 0.9999958872795105
---
header:
  stamp:
    sec: 107
    nanosec: 948000000
  frame_id: map
pose:
  position:
    x: 0.027905166149139404
    y: 0.0038592449855059385
    z: -0.0012656450271606445
  orientation:
    x: -0.00012278478243388236
    y: -0.0012096947757527232
    z: -0.002250137273222208
    w: 0.9999967217445374
---
header:
  stamp:
    sec: 107
    nanosec: 948000000
  frame_id: map
pose:
  position:
    x: 0.02711719274520874
    y: 0.003672168590128422
    z: -0.000732421875
  orientation:
    x: -2.2931333660380915e-05
    y: -0.0009333668858744204
    z: -0.002033812226727605
    w: 0.9999974966049194
---
header:
  stamp:
    sec: 107
    nanosec: 973000000
  frame_id: map
pose:
  position:
    x: 0.02574753761291504
    y: 0.0042587993666529655
    z: 0.00016117095947265625
  orientation:
    x: -0.00010504436068003997
    y: -0.0005184538313187659
    z: -0.0022231112234294415
    w: 0.9999973773956299
---
header:
  stamp:
    sec: 107
    nanosec: 999000000
  frame_id: map
pose:
  position:
    x: 0.025748252868652344
    y: 0.004491843283176422
    z: 0.0008335113525390625
  orientation:
    x: 6.148534157546237e-05
    y: -0.0002229987148893997
    z: -0.0022237212397158146
    w: 0.9999974966049194
---
header:
  stamp:
    sec: 108
    nanosec: 15000000
  frame_id: map
pose:
  position:
    x: 0.028404295444488525
    y: 0.00429992750287056
    z: -0.0012788772583007812
  orientation:
    x: -0.00027371669420972466
    y: -0.0012860140996053815
    z: -0.0023982925340533257
    w: 0.9999962449073792
---
header:
  stamp:
    sec: 108
    nanosec: 35000000
  frame_id: map
pose:
  position:
    x: 0.02643132209777832
    y: 0.005983300507068634
    z: 0.00012755393981933594
  orientation:
    x: 2.4876631869119592e-05
    y: -0.0006385939777828753
    z: -0.0028593989554792643
    w: 0.9999957084655762
---
header:
  stamp:
    sec: 108
    nanosec: 49000000
  frame_id: map
pose:
  position:
    x: 0.027218401432037354
    y: 0.005256988573819399
    z: -0.0001665353775024414
  orientation:
    x: -0.00015007221372798085
    y: -0.0008260547765530646
    z: -0.002741254633292556
    w: 0.9999958872795105
---
header:
  stamp:
    sec: 108
    nanosec: 82000000
  frame_id: map
pose:
  position:
    x: 0.02830606698989868
    y: 0.004853451158851385
    z: -0.00044715404510498047
  orientation:
    x: -8.949914627010003e-05
    y: -0.001032071653753519
    z: -0.002513154176995158
    w: 0.9999963045120239
---
header:
  stamp:
    sec: 108
    nanosec: 105000000
  frame_id: map
pose:
  position:
    x: 0.02853238582611084
    y: 0.004645271692425013
    z: -0.0003285408020019531
  orientation:
    x: 5.6986250456247944e-06
    y: -0.00102008949033916
    z: -0.0023383458610624075
    w: 0.9999967217445374
---
header:
  stamp:
    sec: 108
    nanosec: 115000000
  frame_id: map
pose:
  position:
    x: 0.02911984920501709
    y: 0.00483457837253809
    z: -0.0004442930221557617
  orientation:
    x: -0.000247760908678174
    y: -0.001058835769072175
    z: -0.0026339557953178883
    w: 0.9999959468841553
---
header:
  stamp:
    sec: 108
    nanosec: 132000000
  frame_id: map
pose:
  position:
    x: 0.029665052890777588
    y: 0.004389624111354351
    z: -0.0004940032958984375
  orientation:
    x: -0.00021968648070469499
    y: -0.0011883460683748126
    z: -0.0023900975938886404
    w: 0.9999964237213135
---
header:
  stamp:
    sec: 108
    nanosec: 150000000
  frame_id: map
pose:
  position:
    x: 0.03231692314147949
    y: 0.004906271584331989
    z: -0.0009139776229858398
  orientation:
    x: -0.00027005485026165843
    y: -0.0014922386035323143
    z: -0.0026848430279642344
    w: 0.999995231628418
---
header:
  stamp:
    sec: 108
    nanosec: 169000000
  frame_id: map
pose:
  position:
    x: 0.03349083662033081
    y: 0.004641753155738115
    z: -0.0016546249389648438
  orientation:
    x: -0.00035025886609219015
    y: -0.001833790447562933
    z: -0.0026295362040400505
    w: 0.9999948143959045
---
header:
  stamp:
    sec: 108
    nanosec: 183000000
  frame_id: map
pose:
  position:
    x: 0.03357571363449097
    y: 0.004933563992381096
    z: -0.0014870166778564453
  orientation:
    x: -0.00011438571527833119
    y: -0.0018106758361682296
    z: -0.0025108500849455595
    w: 0.9999951720237732
---
header:
  stamp:
    sec: 108
    nanosec: 215000000
  frame_id: map
pose:
  position:
    x: 0.03410613536834717
    y: 0.00558993685990572
    z: -0.0007536411285400391
  orientation:
    x: -0.00047154093044809997
    y: -0.0015333081828430295
    z: -0.0030466963071376085
    w: 0.9999940991401672
---
header:
  stamp:
    sec: 108
    nanosec: 232000000
  frame_id: map
pose:
  position:
    x: 0.03549933433532715
    y: 0.00484976964071393
    z: -0.001474142074584961
  orientation:
    x: -0.00035631086211651564
    y: -0.00195399415679276
    z: -0.002689216285943985
    w: 0.9999943971633911
---
header:
  stamp:
    sec: 108
    nanosec: 250000000
  frame_id: map
pose:
  position:
    x: 0.03566688299179077
    y: 0.005478835664689541
    z: -0.001280069351196289
  orientation:
    x: -0.0005749453557655215
    y: -0.0018117923755198717
    z: -0.0030070855282247066
    w: 0.9999936819076538
---
header:
  stamp:
    sec: 108
    nanosec: 265000000
  frame_id: map
pose:
  position:
    x: 0.03573048114776611
    y: 0.00578693300485611
    z: -0.0011210441589355469
  orientation:
    x: -0.00047564279520884156
    y: -0.001859881915152073
    z: -0.003250427544116974
    w: 0.999992847442627
---
header:
  stamp:
    sec: 108
    nanosec: 304000000
  frame_id: map
pose:
  position:
    x: 0.03667968511581421
    y: 0.004892779979854822
    z: -0.0008677244186401367
  orientation:
    x: -0.0005107843317091465
    y: -0.001750013674609363
    z: -0.002815930638462305
    w: 0.9999943375587463
---
header:
  stamp:
    sec: 108
    nanosec: 315000000
  frame_id: map
pose:
  position:
    x: 0.037622034549713135
    y: 0.005230644717812538
    z: -0.0016520023345947266
  orientation:
    x: -0.0004779030568897724
    y: -0.0021163877099752426
    z: -0.0028636606875807047
    w: 0.9999935626983643
---
header:
  stamp:
    sec: 108
    nanosec: 333000000
  frame_id: map
pose:
  position:
    x: 0.03793603181838989
    y: 0.005460226442664862
    z: -0.001666426658630371
  orientation:
    x: -0.0004936260520480573
    y: -0.002168624894693494
    z: -0.003097343724220991
    w: 0.9999927282333374
---
header:
  stamp:
    sec: 108
    nanosec: 350000000
  frame_id: map
pose:
  position:
    x: 0.03624790906906128
    y: 0.006582227535545826
    z: -0.0005191564559936523
  orientation:
    x: -0.00010293737432220951
    y: -0.0015620902413502336
    z: -0.0032392845023423433
    w: 0.9999935030937195
---
header:
  stamp:
    sec: 108
    nanosec: 383000000
  frame_id: map
pose:
  position:
    x: 0.03814023733139038
    y: 0.0059897685423493385
    z: -0.001481175422668457
  orientation:
    x: -0.00036844148417003453
    y: -0.002006370574235916
    z: -0.003216153709217906
    w: 0.9999927282333374
---
header:
  stamp:
    sec: 108
    nanosec: 400000000
  frame_id: map
pose:
  position:
    x: 0.039317190647125244
    y: 0.006840936839580536
    z: -0.002088308334350586
  orientation:
    x: -0.0002711944398470223
    y: -0.0023491813335567713
    z: -0.0035349519457668066
    w: 0.9999909400939941
---
header:
  stamp:
    sec: 108
    nanosec: 437000000
  frame_id: map
pose:
  position:
    x: 0.03902477025985718
    y: 0.006814354099333286
    z: -0.0012688636779785156
  orientation:
    x: -0.00020073793712072074
    y: -0.001971322111785412
    z: -0.003502307226881385
    w: 0.9999918937683105
---
header:
  stamp:
    sec: 108
    nanosec: 449000000
  frame_id: map
pose:
  position:
    x: 0.040280044078826904
    y: 0.0072050439193844795
    z: -0.0021729469299316406
  orientation:
    x: -0.0006191701395437121
    y: -0.0024124826304614544
    z: -0.0039733778685331345
    w: 0.9999889731407166
---
header:
  stamp:
    sec: 108
    nanosec: 465000000
  frame_id: map
pose:
  position:
    x: 0.040646135807037354
    y: 0.0055387201718986034
    z: -0.0018835067749023438
  orientation:
    x: -0.0003202759544365108
    y: -0.0022463405039161444
    z: -0.0029718661680817604
    w: 0.9999930262565613
---
header:
  stamp:
    sec: 108
    nanosec: 483000000
  frame_id: map
pose:
  position:
    x: 0.04714757204055786
    y: 0.006664924323558807
    z: -0.0018768310546875
  orientation:
    x: -0.000512154889293015
    y: -0.0023534034844487906
    z: -0.00344558316282928
    w: 0.9999911785125732
---
header:
  stamp:
    sec: 108
    nanosec: 502000000
  frame_id: map
pose:
  position:
    x: 0.048384666442871094
    y: 0.006208202801644802
    z: -0.0023709535598754883
  orientation:
    x: -0.0007546381675638258
    y: -0.0026672743260860443
    z: -0.0034567120019346476
    w: 0.9999901652336121
---
header:
  stamp:
    sec: 108
    nanosec: 533000000
  frame_id: map
pose:
  position:
    x: 0.047638535499572754
    y: 0.007101734634488821
    z: -0.0010747909545898438
  orientation:
    x: -0.0004303627647459507
    y: -0.002108353190124035
    z: -0.003566150553524494
    w: 0.9999912977218628
---
header:
  stamp:
    sec: 108
    nanosec: 550000000
  frame_id: map
pose:
  position:
    x: 0.04793339967727661
    y: 0.006899278610944748
    z: -0.0009671449661254883
  orientation:
    x: -0.00044517189962789416
    y: -0.0020682569593191147
    z: -0.003563688602298498
    w: 0.9999914169311523
---
header:
  stamp:
    sec: 108
    nanosec: 572000000
  frame_id: map
pose:
  position:
    x: 0.04930770397186279
    y: 0.00782587006688118
    z: -0.001759171485900879
  orientation:
    x: -0.0003940866736229509
    y: -0.002498331945389509
    z: -0.003906747326254845
    w: 0.9999891519546509
---
header:
  stamp:
    sec: 108
    nanosec: 582000000
  frame_id: map
pose:
  position:
    x: 0.04976993799209595
    y: 0.007881048135459423
    z: -0.0019142627716064453
  orientation:
    x: -0.00039772369200363755
    y: -0.0025759267155081034
    z: -0.003934541717171669
    w: 0.999988853931427
---
header:
  stamp:
    sec: 108
    nanosec: 600000000
  frame_id: map
pose:
  position:
    x: 0.051206886768341064
    y: 0.00846520159393549
    z: -0.0029680728912353516
  orientation:
    x: -0.0006312766927294433
    y: -0.003117623971775174
    z: -0.004314356483519077
    w: 0.9999856352806091
---
header:
  stamp:
    sec: 108
    nanosec: 615000000
  frame_id: map
pose:
  position:
    x: 0.049769461154937744
    y: 0.007946507073938847
    z: -0.0013717412948608398
  orientation:
    x: -0.0006111519760452211
    y: -0.0023567713797092438
    z: -0.004159249365329742
    w: 0.9999883770942688
---
header:
  stamp:
    sec: 108
    nanosec: 638000000
  frame_id: map
pose:
  position:
    x: 0.051254212856292725
    y: 0.007728139404207468
    z: -0.0023775100708007812
  orientation:
    x: -0.0006298822117969394
    y: -0.0027983079198747873
    z: -0.004074751865118742
    w: 0.9999876022338867
---
header:
  stamp:
    sec: 108
    nanosec: 649000000
  frame_id: map
pose:
  position:
    x: 0.0500679612159729
    y: 0.008358504623174667
    z: -0.0010880231857299805
  orientation:
    x: -0.0003335149376653135
    y: -0.002074391348287463
    z: -0.004024984780699015
    w: 0.9999896883964539
---
header:
  stamp:
    sec: 108
    nanosec: 666000000
  frame_id: map
pose:
  position:
    x: 0.05112510919570923
    y: 0.00878414511680603
    z: -0.0016382932662963867
  orientation:
    x: -0.0004817986919078976
    y: -0.002478428417816758
    z: -0.0043980455957353115
    w: 0.9999871253967285
---
header:
  stamp:
    sec: 108
    nanosec: 683000000
  frame_id: map
pose:
  position:
    x: 0.051080942153930664
    y: 0.00842299684882164
    z: -0.0013343095779418945
  orientation:
    x: -0.0004591057659126818
    y: -0.002249740296974778
    z: -0.004218470770865679
    w: 0.9999884366989136
---
header:
  stamp:
    sec: 108
    nanosec: 704000000
  frame_id: map
pose:
  position:
    x: 0.05258452892303467
    y: 0.006452593952417374
    z: -0.002094268798828125
  orientation:
    x: -0.0009096374269574881
    y: -0.002587562194094062
    z: -0.00373009848408401
    w: 0.9999892711639404
---
header:
  stamp:
    sec: 108
    nanosec: 715000000
  frame_id: map
pose:
  position:
    x: 0.05132114887237549
    y: 0.00861177034676075
    z: -0.0005918741226196289
  orientation:
    x: -0.000498311361297965
    y: -0.0019486926030367613
    z: -0.004131624009460211
    w: 0.9999894499778748
---
header:
  stamp:
    sec: 108
    nanosec: 733000000
  frame_id: map
pose:
  position:
    x: 0.04807114601135254
    y: 0.008605514653027058
    z: 0.00044417381286621094
  orientation:
    x: -0.000669800559990108
    y: -0.0013917728792876005
    z: -0.004558434244245291
    w: 0.9999884366989136
---
header:
  stamp:
    sec: 108
    nanosec: 749000000
  frame_id: map
pose:
  position:
    x: 0.04814380407333374
    y: 0.008127685636281967
    z: 0.0006361007690429688
  orientation:
    x: -0.00035210183705203235
    y: -0.0012917155399918556
    z: -0.004086421336978674
    w: 0.9999907612800598
---
header:
  stamp:
    sec: 108
    nanosec: 768000000
  frame_id: map
pose:
  position:
    x: 0.05053281784057617
    y: 0.009358382783830166
    z: -0.0013394355773925781
  orientation:
    x: -0.0005901895929127932
    y: -0.0022167470306158066
    z: -0.004740530624985695
    w: 0.9999861121177673
---
header:
  stamp:
    sec: 108
    nanosec: 782000000
  frame_id: map
pose:
  position:
    x: 0.049508869647979736
    y: 0.009470643475651741
    z: -0.0002409219741821289
  orientation:
    x: -0.0006758509553037584
    y: -0.0017321760533377528
    z: -0.004939070902764797
    w: 0.9999860525131226
---
header:
  stamp:
    sec: 108
    nanosec: 799000000
  frame_id: map
pose:
  position:
    x: 0.050582826137542725
    y: 0.007228558417409658
    z: -0.00018358230590820312
  orientation:
    x: -0.00037914668791927397
    y: -0.0016441711923107505
    z: -0.0038558964151889086
    w: 0.9999911189079285
---
header:
  stamp:
    sec: 108
    nanosec: 815000000
  frame_id: map
pose:
  position:
    x: 0.0500221848487854
    y: 0.007209608796983957
    z: -1.8596649169921875e-05
  orientation:
    x: -0.0006733135669492185
    y: -0.0015899616992101073
    z: -0.004051817115396261
    w: 0.9999902844429016
---
header:
  stamp:
    sec: 108
    nanosec: 836000000
  frame_id: map
pose:
  position:
    x: 0.0490795373916626
    y: 0.00810595415532589
    z: 0.0015058517456054688
  orientation:
    x: -0.0006716126808896661
    y: -0.0008759740157984197
    z: -0.004429694265127182
    w: 0.9999895691871643
---
header:
  stamp:
    sec: 108
    nanosec: 849000000
  frame_id: map
pose:
  position:
    x: 0.0508844256401062
    y: 0.009405622258782387
    z: -9.894371032714844e-06
  orientation:
    x: -0.0005860091769136488
    y: -0.0016034222207963467
    z: -0.004905615001916885
    w: 0.9999865293502808
---
header:
  stamp:
    sec: 108
    nanosec: 865000000
  frame_id: map
pose:
  position:
    x: 0.05037057399749756
    y: 0.008883900940418243
    z: 0.0005145072937011719
  orientation:
    x: -0.0008739574695937335
    y: -0.0013827673392370343
    z: -0.004870716482400894
    w: 0.9999867677688599
---
header:
  stamp:
    sec: 108
    nanosec: 882000000
  frame_id: map
pose:
  position:
    x: 0.05158263444900513
    y: 0.008118432015180588
    z: -0.00015234947204589844
  orientation:
    x: -0.00041943677933886647
    y: -0.0017301824409514666
    z: -0.004143442027270794
    w: 0.9999898076057434
---
header:
  stamp:
    sec: 108
    nanosec: 908000000
  frame_id: map
pose:
  position:
    x: 0.051826655864715576
    y: 0.006633087992668152
    z: 0.0006593465805053711
  orientation:
    x: -0.0008899278473109007
    y: -0.0012917431304231286
    z: -0.0038428115658462048
    w: 0.9999913573265076
---
header:
  stamp:
    sec: 108
    nanosec: 949000000
  frame_id: map
pose:
  position:
    x: 0.05291646718978882
    y: 0.007668072823435068
    z: 0.0002499818801879883
  orientation:
    x: -0.0008251486578956246
    y: -0.0014478176599368453
    z: -0.004397725220769644
    w: 0.9999889135360718
---
header:
  stamp:
    sec: 108
    nanosec: 972000000
  frame_id: map
pose:
  position:
    x: 0.052777767181396484
    y: 0.008196602575480938
    z: 0.0010178089141845703
  orientation:
    x: -0.0006295190542005002
    y: -0.0012180395424365997
    z: -0.004357864148914814
    w: 0.9999895691871643
---
header:
  stamp:
    sec: 108
    nanosec: 984000000
  frame_id: map
pose:
  position:
    x: 0.05369299650192261
    y: 0.009032880887389183
    z: 0.00044858455657958984
  orientation:
    x: -0.0004058793419972062
    y: -0.0014348906697705388
    z: -0.00465084332972765
    w: 0.9999880790710449
---
header:
  stamp:
    sec: 108
    nanosec: 999000000
  frame_id: map
pose:
  position:
    x: 0.05428004264831543
    y: 0.00858187023550272
    z: 6.747245788574219e-05
  orientation:
    x: -0.0006826543249189854
    y: -0.0016304373275488615
    z: -0.004743066616356373
    w: 0.9999871850013733
---
header:
  stamp:
    sec: 109
    nanosec: 15000000
  frame_id: map
pose:
  position:
    x: 0.05446135997772217
    y: 0.007617962546646595
    z: 0.00017833709716796875
  orientation:
    x: -0.0007231212221086025
    y: -0.0015016236575320363
    z: -0.004284607246518135
    w: 0.99998939037323
---
header:
  stamp:
    sec: 109
    nanosec: 35000000
  frame_id: map
pose:
  position:
    x: 0.05509233474731445
    y: 0.007996061816811562
    z: 6.80685043334961e-05
  orientation:
    x: -0.0007917173206806183
    y: -0.0016408140072599053
    z: -0.004482978489249945
    w: 0.9999882578849792
---
header:
  stamp:
    sec: 109
    nanosec: 51000000
  frame_id: map
pose:
  position:
    x: 0.0694614052772522
    y: 0.008533094078302383
    z: 0.001701951026916504
  orientation:
    x: -0.000736229820176959
    y: -0.0012274801265448332
    z: -0.00407566549256444
    w: 0.9999906420707703
---
header:
  stamp:
    sec: 109
    nanosec: 65000000
  frame_id: map
pose:
  position:
    x: 0.07156676054000854
    y: 0.008087636902928352
    z: 0.0004069805145263672
  orientation:
    x: -0.0007696400280110538
    y: -0.00180617137812078
    z: -0.003851569490507245
    w: 0.9999906420707703
---
header:
  stamp:
    sec: 109
    nanosec: 82000000
  frame_id: map
pose:
  position:
    x: 0.07074236869812012
    y: 0.010372087359428406
    z: 0.0007113218307495117
  orientation:
    x: -0.0008147641783580184
    y: -0.0016199263045564294
    z: -0.0049609411507844925
    w: 0.9999860525131226
---
header:
  stamp:
    sec: 109
    nanosec: 115000000
  frame_id: map
pose:
  position:
    x: 0.073513925075531
    y: 0.007472531404346228
    z: -0.00012099742889404297
  orientation:
    x: -0.0008351732976734638
    y: -0.0022171693854033947
    z: -0.0037553703878074884
    w: 0.9999901652336121
---
header:
  stamp:
    sec: 109
    nanosec: 132000000
  frame_id: map
pose:
  position:
    x: 0.07433450222015381
    y: 0.008866040036082268
    z: -0.00043833255767822266
  orientation:
    x: -0.0009682461386546493
    y: -0.002334284596145153
    z: -0.0043179430067539215
    w: 0.9999874830245972
---
header:
  stamp:
    sec: 109
    nanosec: 150000000
  frame_id: map
pose:
  position:
    x: 0.07418352365493774
    y: 0.008615338243544102
    z: 0.00038754940032958984
  orientation:
    x: -0.0011615825351327658
    y: -0.0019907059613615274
    z: -0.004495567642152309
    w: 0.9999872446060181
---
header:
  stamp:
    sec: 109
    nanosec: 170000000
  frame_id: map
pose:
  position:
    x: 0.07521575689315796
    y: 0.00938245840370655
    z: -0.00015842914581298828
  orientation:
    x: -0.001070217927917838
    y: -0.0021999338641762733
    z: -0.004700423683971167
    w: 0.999985933303833
---
header:
  stamp:
    sec: 109
    nanosec: 183000000
  frame_id: map
pose:
  position:
    x: 0.07517129182815552
    y: 0.0073251137509942055
    z: 0.000758051872253418
  orientation:
    x: -0.0006446829065680504
    y: -0.0017356681637465954
    z: -0.0036954928655177355
    w: 0.9999914169311523
---
header:
  stamp:
    sec: 109
    nanosec: 241000000
  frame_id: map
pose:
  position:
    x: 0.0766863226890564
    y: 0.008135514333844185
    z: 0.0009055137634277344
  orientation:
    x: -0.0007681143470108509
    y: -0.0016237517120316625
    z: -0.004044951405376196
    w: 0.9999902248382568
---
header:
  stamp:
    sec: 109
    nanosec: 265000000
  frame_id: map
pose:
  position:
    x: 0.07719957828521729
    y: 0.007851291447877884
    z: 0.0005609989166259766
  orientation:
    x: -0.0008570240461267531
    y: -0.0018999265739694238
    z: -0.0038872798904776573
    w: 0.9999902844429016
---
header:
  stamp:
    sec: 109
    nanosec: 282000000
  frame_id: map
pose:
  position:
    x: 0.07759159803390503
    y: 0.008932340890169144
    z: 0.0007190704345703125
  orientation:
    x: -0.0008730751578696072
    y: -0.0018994207493960857
    z: -0.0044461814686656
    w: 0.9999879002571106
---
header:
  stamp:
    sec: 109
    nanosec: 305000000
  frame_id: map
pose:
  position:
    x: 0.07940733432769775
    y: 0.007327374070882797
    z: 0.0002465248107910156
  orientation:
    x: -0.0009544964414089918
    y: -0.0019237333908677101
    z: -0.003755449317395687
    w: 0.9999906420707703
---
header:
  stamp:
    sec: 109
    nanosec: 315000000
  frame_id: map
pose:
  position:
    x: 0.07941263914108276
    y: 0.0076435646042227745
    z: 0.0008054971694946289
  orientation:
    x: -0.0006648778216913342
    y: -0.0018545091152191162
    z: -0.00369854923337698
    w: 0.999991238117218
---
header:
  stamp:
    sec: 109
    nanosec: 350000000
  frame_id: map
pose:
  position:
    x: 0.09174776077270508
    y: 0.007332753390073776
    z: 0.0019398927688598633
  orientation:
    x: -0.0005774229066446424
    y: -0.001636651810258627
    z: -0.0030779424123466015
    w: 0.9999937415122986
---
header:
  stamp:
    sec: 109
    nanosec: 370000000
  frame_id: map
pose:
  position:
    x: 0.09256130456924438
    y: 0.006889116484671831
    z: 0.001939535140991211
  orientation:
    x: -0.0007516639889217913
    y: -0.0015740363160148263
    z: -0.0031615723855793476
    w: 0.9999934434890747
---
header:
  stamp:
    sec: 109
    nanosec: 382000000
  frame_id: map
pose:
  position:
    x: 0.09375649690628052
    y: 0.008260480128228664
    z: 0.00033783912658691406
  orientation:
    x: -0.0007553477771580219
    y: -0.002164167119190097
    z: -0.0035584168508648872
    w: 0.9999910593032837
---
header:
  stamp:
    sec: 109
    nanosec: 399000000
  frame_id: map
pose:
  position:
    x: 0.09522497653961182
    y: 0.006324551533907652
    z: 3.5762786865234375e-07
  orientation:
    x: -0.0007439268520101905
    y: -0.002406694693490863
    z: -0.0028440013993531466
    w: 0.9999927878379822
---
header:
  stamp:
    sec: 109
    nanosec: 415000000
  frame_id: map
pose:
  position:
    x: 0.09367775917053223
    y: 0.008866876363754272
    z: 0.0023064613342285156
  orientation:
    x: -0.0005445859860628843
    y: -0.0014975746162235737
    z: -0.003676014021039009
    w: 0.9999919533729553
---
header:
  stamp:
    sec: 109
    nanosec: 437000000
  frame_id: map
pose:
  position:
    x: 0.09551125764846802
    y: 0.007765943184494972
    z: 0.0013920068740844727
  orientation:
    x: -0.0008959098486229777
    y: -0.001890127663500607
    z: -0.0034523436333984137
    w: 0.9999918341636658
---
header:
  stamp:
    sec: 109
    nanosec: 449000000
  frame_id: map
pose:
  position:
    x: 0.09709209203720093
    y: 0.007195792160928249
    z: -0.00042760372161865234
  orientation:
    x: -0.0010382498148828745
    y: -0.0026397595647722483
    z: -0.003386532887816429
    w: 0.9999902248382568
---
header:
  stamp:
    sec: 109
    nanosec: 465000000
  frame_id: map
pose:
  position:
    x: 0.09746766090393066
    y: 0.006665355060249567
    z: -0.0003180503845214844
  orientation:
    x: -0.000945247826166451
    y: -0.0025835279375314713
    z: -0.0030757447239011526
    w: 0.9999914765357971
---
header:
  stamp:
    sec: 109
    nanosec: 482000000
  frame_id: map
pose:
  position:
    x: 0.09947448968887329
    y: 0.0053136954084038734
    z: 0.0013167858123779297
  orientation:
    x: -0.0007796378922648728
    y: -0.0018014690140262246
    z: -0.0024514992255717516
    w: 0.9999950528144836
---
header:
  stamp:
    sec: 109
    nanosec: 502000000
  frame_id: map
pose:
  position:
    x: 0.0986776351928711
    y: 0.008261528797447681
    z: 0.0025517940521240234
  orientation:
    x: -0.000883923436049372
    y: -0.0013782760361209512
    z: -0.0035630837082862854
    w: 0.999992311000824
---
header:
  stamp:
    sec: 109
    nanosec: 515000000
  frame_id: map
pose:
  position:
    x: 0.09954714775085449
    y: 0.005757180042564869
    z: 0.0023957490921020508
  orientation:
    x: -0.0006648474372923374
    y: -0.0015452909283339977
    z: -0.0024918692652136087
    w: 0.9999954700469971
---
header:
  stamp:
    sec: 109
    nanosec: 532000000
  frame_id: map
pose:
  position:
    x: 0.10139322280883789
    y: 0.008271700702607632
    z: 0.0008293390274047852
  orientation:
    x: -0.00111681642010808
    y: -0.002254005055874586
    z: -0.003756062826141715
    w: 0.9999897480010986
---
header:
  stamp:
    sec: 109
    nanosec: 549000000
  frame_id: map
pose:
  position:
    x: 0.10069632530212402
    y: 0.007605417165905237
    z: 0.0022258758544921875
  orientation:
    x: -0.0011343862861394882
    y: -0.0016479560872539878
    z: -0.003524928353726864
    w: 0.999991774559021
---
header:
  stamp:
    sec: 109
    nanosec: 582000000
  frame_id: map
pose:
  position:
    x: 0.10325372219085693
    y: 0.006927385926246643
    z: 0.0012173652648925781
  orientation:
    x: -0.0013710580533370376
    y: -0.002114715985953808
    z: -0.00344187393784523
    w: 0.9999908804893494
---
header:
  stamp:
    sec: 109
    nanosec: 599000000
  frame_id: map
pose:
  position:
    x: 0.10347068309783936
    y: 0.008181778714060783
    z: 0.0015025138854980469
  orientation:
    x: -0.0006430525681935251
    y: -0.001832531881518662
    z: -0.0034911406692117453
    w: 0.9999920129776001
---
header:
  stamp:
    sec: 109
    nanosec: 615000000
  frame_id: map
pose:
  position:
    x: 0.1029776930809021
    y: 0.00763459550216794
    z: 0.0020902156829833984
  orientation:
    x: -0.0008469627355225384
    y: -0.0017784617375582457
    z: -0.0035664974711835384
    w: 0.9999917149543762
---
header:
  stamp:
    sec: 109
    nanosec: 635000000
  frame_id: map
pose:
  position:
    x: 0.10523861646652222
    y: 0.00573645019903779
    z: 0.0024524927139282227
  orientation:
    x: -0.0005358713096939027
    y: -0.0016095238970592618
    z: -0.002546326257288456
    w: 0.9999952912330627
---
header:
  stamp:
    sec: 109
    nanosec: 651000000
  frame_id: map
pose:
  position:
    x: 0.1062132716178894
    y: 0.005797255784273148
    z: 0.0018836259841918945
  orientation:
    x: -0.0008659173035994172
    y: -0.0018169998656958342
    z: -0.0026832635048776865
    w: 0.9999943375587463
---
header:
  stamp:
    sec: 109
    nanosec: 685000000
  frame_id: map
pose:
  position:
    x: 0.10758048295974731
    y: 0.004339106380939484
    z: 0.0017211437225341797
  orientation:
    x: -0.0010372563265264034
    y: -0.002063568215817213
    z: -0.0022939275950193405
    w: 0.999994695186615
---
header:
  stamp:
    sec: 109
    nanosec: 703000000
  frame_id: map
pose:
  position:
    x: 0.10807472467422485
    y: 0.005726771429181099
    z: 0.0018930435180664062
  orientation:
    x: -0.00083745620213449
    y: -0.0018526752246543765
    z: -0.0025016851723194122
    w: 0.9999948143959045
---
header:
  stamp:
    sec: 109
    nanosec: 718000000
  frame_id: map
pose:
  position:
    x: 0.11444681882858276
    y: 0.002441905438899994
    z: 0.0008385181427001953
  orientation:
    x: -0.0009212750010192394
    y: -0.002535600680857897
    z: -0.0010792474495247006
    w: 0.999995768070221
---
header:
  stamp:
    sec: 109
    nanosec: 734000000
  frame_id: map
pose:
  position:
    x: 0.11377459764480591
    y: 0.0042224302887916565
    z: 0.001935720443725586
  orientation:
    x: -0.0008612938690930605
    y: -0.0020859711803495884
    z: -0.001756488811224699
    w: 0.9999958872795105
---
header:
  stamp:
    sec: 109
    nanosec: 751000000
  frame_id: map
pose:
  position:
    x: 0.11392748355865479
    y: 0.000849961070343852
    z: 0.0032303333282470703
  orientation:
    x: -0.00018935426487587392
    y: -0.001360886381007731
    z: -0.00014325873053167015
    w: 0.9999990463256836
---
header:
  stamp:
    sec: 109
    nanosec: 769000000
  frame_id: map
pose:
  position:
    x: 0.11518549919128418
    y: 0.004224253818392754
    z: 0.0018492937088012695
  orientation:
    x: -0.0006353745120577514
    y: -0.0020731654949486256
    z: -0.0016512892907485366
    w: 0.9999962449073792
---
header:
  stamp:
    sec: 109
    nanosec: 784000000
  frame_id: map
pose:
  position:
    x: 0.11573261022567749
    y: 0.0030399179086089134
    z: 0.0018513202667236328
  orientation:
    x: -0.0010124758118763566
    y: -0.002152804285287857
    z: -0.001401715911924839
    w: 0.9999961853027344
---
header:
  stamp:
    sec: 109
    nanosec: 837000000
  frame_id: map
pose:
  position:
    x: 0.1176113486289978
    y: 0.00398650486022234
    z: 0.004859328269958496
  orientation:
    x: -0.0008566351025365293
    y: -0.0010708461049944162
    z: -0.0014256446156650782
    w: 0.9999980330467224
---
header:
  stamp:
    sec: 109
    nanosec: 851000000
  frame_id: map
pose:
  position:
    x: 0.1181458830833435
    y: 0.0037384959869086742
    z: 0.0044956207275390625
  orientation:
    x: -0.0008009213488548994
    y: -0.001173592871055007
    z: -0.0012746198335662484
    w: 0.999998152256012
---
header:
  stamp:
    sec: 109
    nanosec: 869000000
  frame_id: map
pose:
  position:
    x: 0.11851632595062256
    y: 0.004785537254065275
    z: 0.00464022159576416
  orientation:
    x: -0.0007764874608255923
    y: -0.0010323980823159218
    z: -0.0016088897828012705
    w: 0.9999978542327881
---
header:
  stamp:
    sec: 109
    nanosec: 884000000
  frame_id: map
pose:
  position:
    x: 0.12221777439117432
    y: 0.0018990370444953442
    z: 0.005623340606689453
  orientation:
    x: -0.0005383251700550318
    y: -0.0008238964946940541
    z: -0.0005087619065307081
    w: 0.9999993443489075
---
header:
  stamp:
    sec: 109
    nanosec: 902000000
  frame_id: map
pose:
  position:
    x: 0.12335842847824097
    y: 0.0009183116490021348
    z: 0.005133271217346191
  orientation:
    x: -0.0007948153070174158
    y: -0.00106899905949831
    z: -0.0003604918601922691
    w: 0.9999990463256836
---
header:
  stamp:
    sec: 109
    nanosec: 918000000
  frame_id: map
pose:
  position:
    x: 0.12522464990615845
    y: 0.0012773997150361538
    z: 0.004523634910583496
  orientation:
    x: -0.0006627670954912901
    y: -0.0012299434747546911
    z: -0.00037765855086036026
    w: 0.999998927116394
---
header:
  stamp:
    sec: 109
    nanosec: 934000000
  frame_id: map
pose:
  position:
    x: 0.12352627515792847
    y: 0.0020910848397761583
    z: 0.006848335266113281
  orientation:
    x: -0.0006398619152605534
    y: -0.0005120186251588166
    z: -0.0005965882446616888
    w: 0.999999463558197
---
header:
  stamp:
    sec: 109
    nanosec: 969000000
  frame_id: map
pose:
  position:
    x: 0.1260867714881897
    y: 0.0026156059466302395
    z: 0.00493776798248291
  orientation:
    x: -0.0007811308605596423
    y: -0.0010806350037455559
    z: -0.0008901089313440025
    w: 0.9999986886978149
---
header:
  stamp:
    sec: 109
    nanosec: 985000000
  frame_id: map
pose:
  position:
    x: 0.12606483697891235
    y: 0.0024738393258303404
    z: 0.005635261535644531
  orientation:
    x: -0.0008191530359908938
    y: -0.0008924926514737308
    z: -0.0009127984521910548
    w: 0.9999988079071045
---
header:
  stamp:
    sec: 110
    nanosec: 1000000
  frame_id: map
pose:
  position:
    x: 0.12690812349319458
    y: 0.00313373189419508
    z: 0.005616903305053711
  orientation:
    x: -0.0006468200008384883
    y: -0.0008880461100488901
    z: -0.0009669587016105652
    w: 0.999998927116394
---
header:
  stamp:
    sec: 110
    nanosec: 18000000
  frame_id: map
pose:
  position:
    x: 0.12790358066558838
    y: 0.0019256890518590808
    z: 0.006169557571411133
  orientation:
    x: -0.0005687189986929297
    y: -0.0006249042926356196
    z: -0.0005449561285786331
    w: 0.999999463558197
---
header:
  stamp:
    sec: 110
    nanosec: 39000000
  frame_id: map
pose:
  position:
    x: 0.12792044878005981
    y: 0.0035791192203760147
    z: 0.005247354507446289
  orientation:
    x: -0.0007903844234533608
    y: -0.0009320380049757659
    z: -0.0012677251361310482
    w: 0.9999984502792358
---
header:
  stamp:
    sec: 110
    nanosec: 51000000
  frame_id: map
pose:
  position:
    x: 0.12836092710494995
    y: 0.001700373599305749
    z: 0.0067670345306396484
  orientation:
    x: -0.00055721151875332
    y: -0.0004056903999298811
    z: -0.0005014643538743258
    w: 0.9999996423721313
---
header:
  stamp:
    sec: 110
    nanosec: 84000000
  frame_id: map
pose:
  position:
    x: 0.13035482168197632
    y: 0.0026754047721624374
    z: 0.005690932273864746
  orientation:
    x: -0.0007877814932726324
    y: -0.000832097721286118
    z: -0.0010265549644827843
    w: 0.9999988079071045
---
header:
  stamp:
    sec: 110
    nanosec: 104000000
  frame_id: map
pose:
  position:
    x: 0.12973380088806152
    y: 0.003095108550041914
    z: 0.006968498229980469
  orientation:
    x: -0.0004912513541057706
    y: -0.000499713933095336
    z: -0.0009104577475227416
    w: 0.9999993443489075
---
header:
  stamp:
    sec: 110
    nanosec: 118000000
  frame_id: map
pose:
  position:
    x: 0.1307186484336853
    y: 0.0036154903937131166
    z: 0.0062046051025390625
  orientation:
    x: -0.0006434255046769977
    y: -0.0007064931560307741
    z: -0.0011803332017734647
    w: 0.9999988079071045
---
header:
  stamp:
    sec: 110
    nanosec: 151000000
  frame_id: map
pose:
  position:
    x: 0.1319461464881897
    y: 0.0022260881960392
    z: 0.007423281669616699
  orientation:
    x: -0.00031769153429195285
    y: -0.0001869308325694874
    z: -0.0007378056761808693
    w: 0.9999996423721313
---
header:
  stamp:
    sec: 110
    nanosec: 185000000
  frame_id: map
pose:
  position:
    x: 0.13394922018051147
    y: 0.0011505495058372617
    z: 0.007179617881774902
  orientation:
    x: -0.000594740966334939
    y: -0.0004402155173011124
    z: -0.0004929194692522287
    w: 0.9999995827674866
---
header:
  stamp:
    sec: 110
    nanosec: 201000000
  frame_id: map
pose:
  position:
    x: 0.13440603017807007
    y: 0.00286410516127944
    z: 0.006827116012573242
  orientation:
    x: -0.00016182671242859215
    y: -0.00040217870264314115
    z: -0.0006230968283489347
    w: 0.9999997019767761
---
header:
  stamp:
    sec: 110
    nanosec: 219000000
  frame_id: map
pose:
  position:
    x: 0.1351192593574524
    y: 0.0015472513623535633
    z: 0.007022976875305176
  orientation:
    x: -0.0007754984544590116
    y: -0.0005223968764767051
    z: -0.0008057084050960839
    w: 0.9999992251396179
---
header:
  stamp:
    sec: 110
    nanosec: 236000000
  frame_id: map
pose:
  position:
    x: 0.1372014880180359
    y: 0.003253105329349637
    z: 0.004877567291259766
  orientation:
    x: -0.0008507122984156013
    y: -0.0013819898013025522
    z: -0.0014734029537066817
    w: 0.999997615814209
---
header:
  stamp:
    sec: 110
    nanosec: 269000000
  frame_id: map
pose:
  position:
    x: 0.13750344514846802
    y: 0.003439858788624406
    z: 0.006188511848449707
  orientation:
    x: -0.00031632735044695437
    y: -0.0007794087287038565
    z: -0.0009713859762996435
    w: 0.9999991655349731
---
header:
  stamp:
    sec: 110
    nanosec: 285000000
  frame_id: map
pose:
  position:
    x: 0.13841307163238525
    y: 0.0006699450314044952
    z: 0.005664825439453125
  orientation:
    x: -0.0003617902984842658
    y: -0.0011153400409966707
    z: -0.000213002014788799
    w: 0.9999992847442627
---
header:
  stamp:
    sec: 110
    nanosec: 301000000
  frame_id: map
pose:
  position:
    x: 0.14154094457626343
    y: 0.0026396275497972965
    z: 0.002216935157775879
  orientation:
    x: -0.0010101693915203214
    y: -0.0022898237220942974
    z: -0.0010538139613345265
    w: 0.9999963045120239
---
header:
  stamp:
    sec: 110
    nanosec: 319000000
  frame_id: map
pose:
  position:
    x: 0.1395837664604187
    y: 0.000995393842458725
    z: 0.0056378841400146484
  orientation:
    x: -0.0008346423855982721
    y: -0.00124630075879395
    z: -0.0006596690509468317
    w: 0.9999986290931702
---
header:
  stamp:
    sec: 110
    nanosec: 334000000
  frame_id: map
pose:
  position:
    x: 0.1402444839477539
    y: 0.0008306144154630601
    z: 0.006963968276977539
  orientation:
    x: -0.00034536668681539595
    y: -0.0005504896398633718
    z: -0.00011755146260838956
    w: 0.9999997615814209
---
header:
  stamp:
    sec: 110
    nanosec: 352000000
  frame_id: map
pose:
  position:
    x: 0.14091837406158447
    y: 8.90091760084033e-05
    z: 0.0069512128829956055
  orientation:
    x: -0.000660671095829457
    y: -0.0007866387604735792
    z: -0.0002043140266323462
    w: 0.999999463558197
---
header:
  stamp:
    sec: 110
    nanosec: 374000000
  frame_id: map
pose:
  position:
    x: 0.1417059302330017
    y: -0.0002678729360923171
    z: 0.00673985481262207
  orientation:
    x: -0.0006520617171190679
    y: -0.0008005838026292622
    z: 1.3156055501895025e-05
    w: 0.999999463558197
---
header:
  stamp:
    sec: 110
    nanosec: 384000000
  frame_id: map
pose:
  position:
    x: 0.1414099931716919
    y: 0.000505362288095057
    z: 0.007927298545837402
  orientation:
    x: -0.00041165034053847194
    y: -0.0004088084970135242
    z: -0.00027649846742860973
    w: 0.9999997615814209
---
header:
  stamp:
    sec: 110
    nanosec: 401000000
  frame_id: map
pose:
  position:
    x: 0.14377456903457642
    y: 0.0004713044036179781
    z: 0.005774378776550293
  orientation:
    x: -0.0008624656475149095
    y: -0.0011676495196297765
    z: -0.00043071535765193403
    w: 0.9999988675117493
---
header:
  stamp:
    sec: 110
    nanosec: 418000000
  frame_id: map
pose:
  position:
    x: 0.14288175106048584
    y: -2.942909486591816e-05
    z: 0.008201837539672852
  orientation:
    x: -0.0007602488622069359
    y: -2.356201730435714e-05
    z: -0.00015065327170304954
    w: 0.9999997019767761
---
header:
  stamp:
    sec: 110
    nanosec: 439000000
  frame_id: map
pose:
  position:
    x: 0.14198368787765503
    y: -0.000591908348724246
    z: 0.008922576904296875
  orientation:
    x: -0.0006364060682244599
    y: 0.00010145095438929275
    z: 0.00019834391423501074
    w: 0.9999997615814209
---
header:
  stamp:
    sec: 110
    nanosec: 451000000
  frame_id: map
pose:
  position:
    x: 0.14125794172286987
    y: 9.594089351594448e-05
    z: 0.0094757080078125
  orientation:
    x: -0.0008878682274371386
    y: 0.00013749144272878766
    z: -0.00017542674322612584
    w: 0.9999995827674866
---
header:
  stamp:
    sec: 110
    nanosec: 469000000
  frame_id: map
pose:
  position:
    x: 0.1441168189048767
    y: 0.0017924882704392076
    z: 0.007398247718811035
  orientation:
    x: -0.0008209969382733107
    y: -0.0004816951113753021
    z: -0.0006916449056006968
    w: 0.9999992847442627
---
header:
  stamp:
    sec: 110
    nanosec: 484000000
  frame_id: map
pose:
  position:
    x: 0.14375239610671997
    y: 0.001084859250113368
    z: 0.008554816246032715
  orientation:
    x: -0.0004296257975511253
    y: 2.7515248802956194e-05
    z: -0.00015841411368455738
    w: 0.9999998807907104
---
header:
  stamp:
    sec: 110
    nanosec: 505000000
  frame_id: map
pose:
  position:
    x: 0.14032721519470215
    y: 0.0011816640617325902
    z: 0.008212924003601074
  orientation:
    x: -9.840178972808644e-05
    y: -0.00015626667300239205
    z: -4.932962474413216e-05
    w: 1.0
---
header:
  stamp:
    sec: 110
    nanosec: 518000000
  frame_id: map
pose:
  position:
    x: 0.14277511835098267
    y: 3.889086656272411e-06
    z: 0.005454659461975098
  orientation:
    x: -0.0002257915330119431
    y: -0.000959135708399117
    z: 8.596513362135738e-05
    w: 0.999999463558197
---
header:
  stamp:
    sec: 110
    nanosec: 534000000
  frame_id: map
pose:
  position:
    x: 0.14419138431549072
    y: -0.0011259225429967046
    z: 0.004659533500671387
  orientation:
    x: -0.0003265247796662152
    y: -0.0013284889282658696
    z: 0.00033683684887364507
    w: 0.9999989867210388
---
header:
  stamp:
    sec: 110
    nanosec: 551000000
  frame_id: map
pose:
  position:
    x: 0.14487570524215698
    y: -0.002306066220626235
    z: 0.004199624061584473
  orientation:
    x: -0.0007114774780347943
    y: -0.0016474876319989562
    z: 0.0005726098315790296
    w: 0.9999982118606567
---
header:
  stamp:
    sec: 110
    nanosec: 585000000
  frame_id: map
pose:
  position:
    x: 0.14648538827896118
    y: -0.0026361760683357716
    z: 0.003386855125427246
  orientation:
    x: -0.000399585667764768
    y: -0.0019811869133263826
    z: 0.0007068844279274344
    w: 0.9999976754188538
---
header:
  stamp:
    sec: 110
    nanosec: 601000000
  frame_id: map
pose:
  position:
    x: 0.14717406034469604
    y: -0.003088267520070076
    z: 0.0030156373977661133
  orientation:
    x: -0.0006263412069529295
    y: -0.0021740200463682413
    z: 0.0005173822282813489
    w: 0.9999973177909851
---
header:
  stamp:
    sec: 110
    nanosec: 603000000
  frame_id: map
pose:
  position:
    x: 0.1472172737121582
    y: -0.0029536900110542774
    z: 0.0030586719512939453
  orientation:
    x: -0.0002881709369830787
    y: -0.0020503683481365442
    z: 0.0006965490174479783
    w: 0.999997615814209
---
header:
  stamp:
    sec: 110
    nanosec: 622000000
  frame_id: map
pose:
  position:
    x: 0.1455082893371582
    y: -0.0012570341350510716
    z: 0.003984928131103516
  orientation:
    x: -0.00034354289527982473
    y: -0.001852878020144999
    z: 0.0001552991016069427
    w: 0.9999982118606567
---
header:
  stamp:
    sec: 110
    nanosec: 642000000
  frame_id: map
pose:
  position:
    x: 0.14584875106811523
    y: -0.0007834882126189768
    z: 0.003680706024169922
  orientation:
    x: -0.0003544056380633265
    y: -0.001997983315959573
    z: -0.00017839454812929034
    w: 0.9999979138374329
---
header:
  stamp:
    sec: 110
    nanosec: 654000000
  frame_id: map
pose:
  position:
    x: 0.14700782299041748
    y: -0.0023573744110763073
    z: 0.003185272216796875
  orientation:
    x: 0.00010235149238724262
    y: -0.002123970538377762
    z: 0.0008390222210437059
    w: 0.9999973773956299
---
header:
  stamp:
    sec: 110
    nanosec: 670000000
  frame_id: map
pose:
  position:
    x: 0.14752614498138428
    y: -0.002699280623346567
    z: 0.002809882164001465
  orientation:
    x: -0.0002039647224592045
    y: -0.0023759030736982822
    z: 0.0007218616083264351
    w: 0.9999969005584717
---
header:
  stamp:
    sec: 110
    nanosec: 688000000
  frame_id: map
pose:
  position:
